{"type":"FeatureCollection","features":[{"type":"Feature","properties":{"marker-color":"#7e7e7e","marker-size":"medium","marker-symbol":"","name":"Goats!"},"geometry":{"type":"Point","coordinates":[-135.0554895401001,57.057443088181444]}},{"type":"Feature","properties":{"marker-color":"#7e7e7e","marker-size":"medium","marker-symbol":"","name":"Camp"},"geometry":{"type":"Point","coordinates":[-135.0287961959839,57.070206383442546]}},{"type":"Feature","properties":{"marker-color":"#7e7e7e","marker-size":"medium","marker-symbol":"","name":"lunch"},"geometry":{"type":"Point","coordinates":[-134.97437953948975,57.08944802578047]}},{"type":"Feature","properties":{"marker-color":"#7e7e7e","marker-size":"medium","marker-symbol":"","name":"camp"},"geometry":{"type":"Point","coordinates":[-134.98163223266602,57.0844111784469]}},{"type":"Feature","properties":{"marker-color":"#7e7e7e","marker-size":"medium","marker-symbol":"","name":"Waterfall","desc":"Waterfall out of glacier below falls. Drop into bowl then climb out of it."},"geometry":{"type":"Point","coordinates":[-135.04240036010742,57.06262360188092]}},{"type":"Feature","properties":{"marker-color":"#7e7e7e","marker-size":"medium","marker-symbol":"","name":"Crevasse!"},"geometry":{"type":"Point","coordinates":[-135.03905296325684,57.06089684430742]}},{"type":"Feature","properties":{"marker-color":"#7e7e7e","marker-size":"medium","marker-symbol":"","name":"camp"},"geometry":{"type":"Point","coordinates":[-135.064115524292,57.04257426721396]}},{"type":"Feature","properties":{"marker-color":"#7e7e7e","marker-size":"medium","marker-symbol":"","name":"brush","desc":"Go from boulders to dried stream bed, brush is cut."},"geometry":{"type":"Point","coordinates":[-135.07744073867798,57.03453048552321]}}]}